Chapel Names,City,States/Countries,Latitude,Longitude,Links,
Servants of the Holy Spirit of the Perpetual Adoration ,Nitra,Slovakia,48.329524,18.08412793,apps.csweb.sk/sspsap/,
Heroldsbach Place of Prayer,Heroldsbach,Germany,49.68931569,10.99716787,https://hc2.webstream.eu/channel/krypta/embed?autostart,
St. Anne Piarist Church,Vác,Hungary,47.785977,19.126137,https://orokimadas-vac.click2stream.com/,
Emmaus Retreat Centre Kolkata,Kolkata,India,22.53952109,88.35560882,Perpetual Adoration | LIVE | Emmaus Retreat Centre | #adoration #holymass #jesus #livestream,
St John the Baptist Church,Beloit,"KS, USA",39.45862009,-98.1021792,https://www.youtube.com/watch?v=MmWU3eGdDAQ,
Shalom Catholic Community - Manger of Peace Chapel,Fortaleza/CE,Brazil,-3.734014469,-38.50140179,ADORAÇĂO AO SANTÍSSIMO AO VIVO | CAPELA VIRTUAL | MANJEDOURA DA PAZ,
Goodness TV - Eucharistic Adoration,Kerala,India,10.32004386,76.32107147,? ?????????? ? Perpetual Adoration Live Stream ? 24x7 | GOODNESS TV | EUCHARISTIC ADORATION | LIVE,
Mission Ruah Foundation,Miami,"FL, USA",25.81131886,-80.33058845,Adoración Eucarística,
Shrine of St Martin of Tours,Louisville,"KY, USA",38.24569752,-85.73924014,http://74.142.49.38:8000/mjpg/video.mjpg?camera=1,Live view - AXIS M3015 Network Camera
St Mary's Parish Navan,Meath,Ireland,53.65157964,-6.685858274,"Livestream, broadcast from St Mary's — Navan Parish",Video Player
The Shrine of Divine Mercy,Vilnius,Lithuania,54.6815176,25.28550991,Dievo Gailestingumo Šventov? / the Shrine of Divine Mercy / adoracija / adoration / adoracion,
St Laurence O'Toole Church,Brewster,"NY, USA",41.39809819,-73.61724132,Adoration Chapel,
Shrine of St Maximilian Kolbe,Libertyville,"IL, USA",42.27914732,-87.98029466,National Shrine of St. Maximilian Kolbe - Livestream,
Santo Domingo Savio,Parana,Argentina,-31.76284617,-60.52035873,Adoración eucarística EN VIVO | Perpetual Adoration LIVE | audios Cielo y Tierra en adoración,
Our Lady of Lourdes,Miami,"FL, USA",25.66289209,-80.42336806,Perpetual Adoration,
St Francis of Assisi,Aberdeen,UK,57.12521022,-2.142608787,St Francis of Assisi Church Aberdeen Live Stream,
St John the Evangelist,Greenfield,"WI, USA",42.96732973,-88.01937013,SJE-Greenfield Live Mass & Adoration,
House of Divine Mercy,Koszalin,Poland,54.19698318,16.18808181,(4) Dom Mi?osierdzia Bo?ego w Koszalinie – na ?ywo - YouTube,
Maria Vision - Capilla Cristo Rey De La Paz,Jalisco,Mexico,20.67417873,-103.2620868,Maria+Live Vision,
Bazylika D?bowiec Matki Bo?ej z La Salette,D?bowiec ,Poland,49.68414606,21.46646813,Adoracja Wieczysta - D?bowiec,
Jesus Wonder Animations Ministry,Vienna,Austria,48.20203444,16.40160325,"Live-Eucharistic Adoration from 3ltv Vienna, Austria",
Basilica Of Bom Jesus Goa,Goa,India,15.50107191,73.91136318,"Basilica Live | Final Day - Novena of Grace | Basilica of Bom Jesus, Old Goa | 12 March 2026",
St Clemens Church,Berlin,Germany,52.5033135,13.38543857,"Hl. Messe | Holy Mass | Eucharistische Anbetung | Eucharistic Adoration | St.Clemens, Berlin",
EWTN Polska,Wroclaw,Poland,51.14673898,16.86703727,Adoracja z Kaplicy Wieczystej Adoracji na Dworcu PKP we Wroc?awiu | EWTN Polska,
Our Lady of Guadalupe,Doral,"FL, USA",25.79804468,-80.38456635,Adoration at Our Lady of Guadalupe Sacred Adoration Live Stream,
Santuary of Divine Mercy ,Krakow,Poland,50.02157185,19.93678637,Wieczysta Adoracja | Kaplica Wieczystej Adoracji przy Bazylice Bo?ego Mi?osierdzia w ?agiewnikach,
Santa Teresa de l'Infant Jesus,Barcelona,Spain,41.40072956,2.15178361,Adoración y misas en directo,
Our Lady of Sorrows Catholic Parish,Homewood,"AL, USA",33.47634718,-86.79528316,(4) Adorecast – 24/7 Live Eucharistic Adoration - YouTube,
Sagrada Familia Basilica Sanctuary,Goiás ,Brazil,-16.68940647,-49.31236492,Adoraçăo ŕ Santíssima Eucaristia - AO VIVO,
St Katherine Drexel,Weston,"FL, USA",26.09051975,-80.41143363,Perpetual Adoration Chapel - St Katharine Drexel Catholic Parish,
Immaculate Conception Parish,Buenos Aires,Argentina,-34.4560889,-58.62628358,Adoración Eucarística Perpetua en vivo - 11 ańos,
Adoración al Santísimo Sacramento,Barcelona,Spain,41.72453654,1.822227683,Adoración Eucarística en VIVO - Adoración al Santísimo Sacramento - Perpetual Adoration LIVE,
Monastery of the Poor Clares,S?upsk,Poland,54.46564258,17.03836181,Adoracja – Ko?ció? Sióstr Klarysek w S?upsku,
Our Lady Mother of the Church. ,Sao Paulo,Brazil,-22.90153673,-47.06006833,(4) ADORAÇĂO AO SANTÍSSIMO SACRAMENTO ! - YouTube,
